[{"number": 42, "name": "SMITHFIELD NORTH", "address": "Smithfield North", "lat": 53.349562, "long": -6.278198}, {"number": 30, "name": "PARNELL SQUARE NORTH", "address": "Parnell Square North", "lat": 53.353462, "long": -6.265305}, {"number": 54, "name": "CLONMEL STREET", "address": "Clonmel Street", "lat": 53.336021, "long": -6.26298}, {"number": 56, "name": "MOUNT STREET LOWER", "address": "Mount Street Lower", "lat": 53.33796, "long": -6.24153}, {"number": 6, "name": "CHRISTCHURCH PLACE", "address": "Christchurch Place", "lat": 53.343368, "long": -6.27012}, {"number": 18, "name": "GRANTHAM STREET", "address": "Grantham Street", "lat": 53.334123, "long": -6.265436}, {"number": 32, "name": "PEARSE STREET", "address": "Pearse Street", "lat": 53.344304, "long": -6.250427}, {"number": 52, "name": "YORK STREET EAST", "address": "York Street East", "lat": 53.338755, "long": -6.262003}, {"number": 48, "name": "EXCISE WALK", "address": "Excise Walk", "lat": 53.347777, "long": -6.244239}, {"number": 13, "name": "FITZWILLIAM SQUARE W", "address": "Fitzwilliam Square West", "lat": 53.336074, "long": -6.252825}, {"number": 43, "name": "PORTOBELLO ROAD", "address": "Portobello Road", "lat": 53.330091, "long": -6.268044}, {"number": 81, "name": "ST. JAMES HOSPITAL (", "address": "St. James Hospital (Central)", "lat": 53.339983, "long": -6.295594}, {"number": 31, "name": "PARNELL STREET", "address": "Parnell Street", "lat": 53.350929, "long": -6.265125}, {"number": 98, "name": "FREDERICK STREET SOU", "address": "Frederick Street South", "lat": 53.341515, "long": -6.256853}, {"number": 14, "name": "FOWNES STREET UPPER", "address": "Fownes Street Upper", "lat": 53.344603, "long": -6.263371}, {"number": 1, "name": "CLARENDON ROW", "address": "Clarendon Row", "lat": 53.340927, "long": -6.262501}, {"number": 23, "name": "CUSTOM HOUSE", "address": "Custom House", "lat": 53.348279, "long": -6.254662}, {"number": 68, "name": "HANOVER QUAY", "address": "Hanover Quay", "lat": 53.344115, "long": -6.237153}, {"number": 74, "name": "OLIVER BOND STREET", "address": "Oliver Bond Street", "lat": 53.343893, "long": -6.280531}, {"number": 87, "name": "COLLINS BARRACKS MUS", "address": "Collins Barracks Museum", "lat": 53.347477, "long": -6.28525}, {"number": 84, "name": "BROOKFIELD ROAD", "address": "Brookfield Road", "lat": 53.339005, "long": -6.300217}, {"number": 90, "name": "BENSON STREET", "address": "Benson Street", "lat": 53.344153, "long": -6.233451}, {"number": 11, "name": "EARLSFORT TERRACE", "address": "Earlsfort Terrace", "lat": 53.334019, "long": -6.258371}, {"number": 17, "name": "GOLDEN LANE", "address": "Golden Lane", "lat": 53.340803, "long": -6.267732}, {"number": 45, "name": "DEVERELL PLACE", "address": "Deverell Place", "lat": 53.351464, "long": -6.255265}, {"number": 72, "name": "JOHN STREET WEST", "address": "John Street West", "lat": 53.343105, "long": -6.277167}, {"number": 63, "name": "FENIAN STREET", "address": "Fenian Street", "lat": 53.341428, "long": -6.24672}, {"number": 91, "name": "SOUTH DOCK ROAD", "address": "South Dock Road", "lat": 53.341833, "long": -6.231291}, {"number": 99, "name": "CITY QUAY", "address": "City Quay", "lat": 53.346637, "long": -6.246154}, {"number": 9, "name": "EXCHEQUER STREET", "address": "Exchequer Street", "lat": 53.343034, "long": -6.263578}, {"number": 67, "name": "THE POINT", "address": "The Point", "lat": 53.346867, "long": -6.230852}, {"number": 55, "name": "HATCH STREET", "address": "Hatch Street", "lat": 53.33403, "long": -6.260714}, {"number": 62, "name": "LIME STREET", "address": "Lime Street", "lat": 53.346026, "long": -6.243576}, {"number": 5, "name": "CHARLEMONT PLACE", "address": "Charlemont Street", "lat": 53.330662, "long": -6.260177}, {"number": 97, "name": "KILMAINHAM GAOL", "address": "Kilmainham Gaol", "lat": 53.342113, "long": -6.310015}, {"number": 61, "name": "HARDWICKE PLACE", "address": "Hardwicke Place", "lat": 53.357043, "long": -6.263232}, {"number": 77, "name": "WOLFE TONE STREET", "address": "Wolfe Tone Street", "lat": 53.348875, "long": -6.267459}, {"number": 73, "name": "FRANCIS STREET", "address": "Francis Street", "lat": 53.342081, "long": -6.275233}, {"number": 4, "name": "GREEK STREET", "address": "Greek Street", "lat": 53.346874, "long": -6.272976}, {"number": 49, "name": "GUILD STREET", "address": "Guild Street", "lat": 53.347932, "long": -6.240928}, {"number": 19, "name": "HERBERT PLACE", "address": "Herbert Place", "lat": 53.334432, "long": -6.245575}, {"number": 7, "name": "HIGH STREET", "address": "High Street", "lat": 53.343565, "long": -6.275071}, {"number": 60, "name": "NORTH CIRCULAR ROAD", "address": "North Circular Road", "lat": 53.359624, "long": -6.260348}, {"number": 102, "name": "WESTERN WAY", "address": "Western Way", "lat": 53.354929, "long": -6.269425}, {"number": 38, "name": "TALBOT STREET", "address": "Talbot Street", "lat": 53.350974, "long": -6.25294}, {"number": 53, "name": "NEWMAN HOUSE", "address": "Newman House", "lat": 53.337132, "long": -6.26059}, {"number": 58, "name": "SIR PATRICK DUN'S", "address": "Sir Patrick's Dun", "lat": 53.339218, "long": -6.240642}, {"number": 66, "name": "NEW CENTRAL BANK", "address": "New Central Bank", "lat": 53.347122, "long": -6.234749}, {"number": 101, "name": "KING STREET NORTH", "address": "King Street North", "lat": 53.350291, "long": -6.273507}, {"number": 47, "name": "HERBERT STREET", "address": "Herbert Street", "lat": 53.335742, "long": -6.24551}, {"number": 8, "name": "CUSTOM HOUSE QUAY", "address": "Custom House Quay", "lat": 53.347884, "long": -6.248048}, {"number": 27, "name": "MOLESWORTH STREET", "address": "Molesworth Street", "lat": 53.341288, "long": -6.258117}, {"number": 16, "name": "GEORGES QUAY", "address": "Georges Quay", "lat": 53.347508, "long": -6.252192}, {"number": 96, "name": "KILMAINHAM LANE", "address": "Kilmainham Lane", "lat": 53.341805, "long": -6.305085}, {"number": 82, "name": "MOUNT BROWN", "address": "Mount Brown", "lat": 53.341645, "long": -6.29719}, {"number": 76, "name": "MARKET STREET SOUTH", "address": "Market Street South", "lat": 53.342296, "long": -6.287661}, {"number": 71, "name": "KEVIN STREET", "address": "Kevin Street", "lat": 53.337757, "long": -6.267699}, {"number": 79, "name": "ECCLES STREET EAST", "address": "Eccles Street East", "lat": 53.358115, "long": -6.265601}, {"number": 69, "name": "GRAND CANAL DOCK", "address": "Grand Canal Dock", "lat": 53.342638, "long": -6.238695}, {"number": 25, "name": "MERRION SQUARE EAST", "address": "Merrion Square East", "lat": 53.339434, "long": -6.246548}, {"number": 51, "name": "YORK STREET WEST", "address": "York Street West", "lat": 53.339334, "long": -6.264699}, {"number": 37, "name": "ST. STEPHEN'S GREEN ", "address": "St. Stephen's Green South", "lat": 53.337494, "long": -6.26199}, {"number": 59, "name": "DENMARK STREET GREAT", "address": "Denmark Street Great", "lat": 53.35561, "long": -6.261397}, {"number": 95, "name": "ROYAL HOSPITAL", "address": "Royal Hospital", "lat": 53.343897, "long": -6.29706}, {"number": 94, "name": "HEUSTON STATION (CAR", "address": "Heuston Station (Car Park)", "lat": 53.346985, "long": -6.297804}, {"number": 36, "name": "ST. STEPHEN'S GREEN ", "address": "St. Stephen's Green East", "lat": 53.337824, "long": -6.256035}, {"number": 93, "name": "HEUSTON STATION (CEN", "address": "Heuston Station (Central)", "lat": 53.346603, "long": -6.296924}, {"number": 22, "name": "TOWNSEND STREET", "address": "Townsend Street", "lat": 53.345922, "long": -6.254614}, {"number": 12, "name": "ECCLES STREET", "address": "Eccles Street", "lat": 53.359246, "long": -6.269779}, {"number": 34, "name": "PORTOBELLO HARBOUR", "address": "Portobello Harbour", "lat": 53.330362, "long": -6.265163}, {"number": 78, "name": "MATER HOSPITAL", "address": "Mater Hospital", "lat": 53.359967, "long": -6.264828}, {"number": 2, "name": "BLESSINGTON STREET", "address": "Blessington Street", "lat": 53.356769, "long": -6.26814}, {"number": 75, "name": "JAMES STREET", "address": "James Street", "lat": 53.343456, "long": -6.287409}, {"number": 26, "name": "MERRION SQUARE WEST", "address": "Merrion Square West", "lat": 53.339764, "long": -6.251988}, {"number": 65, "name": "CONVENTION CENTRE", "address": "Convention Centre", "lat": 53.34744, "long": -6.238523}, {"number": 15, "name": "HARDWICKE STREET", "address": "Hardwicke Street", "lat": 53.355473, "long": -6.264423}, {"number": 86, "name": "PARKGATE STREET", "address": "Parkgate Street", "lat": 53.347972, "long": -6.291804}, {"number": 35, "name": "SMITHFIELD", "address": "Smithfield", "lat": 53.347692, "long": -6.278214}, {"number": 10, "name": "DAME STREET", "address": "Dame Street", "lat": 53.344007, "long": -6.266802}, {"number": 100, "name": "HEUSTON BRIDGE (SOUT", "address": "Heuston Bridge (South)", "lat": 53.347106, "long": -6.292041}, {"number": 24, "name": "CATHAL BRUGHA STREET", "address": "Cathal Brugha Street", "lat": 53.352149, "long": -6.260533}, {"number": 64, "name": "SANDWITH STREET", "address": "Sandwith Street", "lat": 53.345203, "long": -6.247163}, {"number": 85, "name": "ROTHE ABBEY", "address": "Rothe Abbey", "lat": 53.338776, "long": -6.30395}, {"number": 33, "name": "PRINCES STREET / O'C", "address": "Princes Street / O'Connell Str", "lat": 53.349013, "long": -6.260311}, {"number": 44, "name": "UPPER SHERRARD STREE", "address": "Upper Sherrard Street", "lat": 53.358437, "long": -6.260641}, {"number": 89, "name": "FITZWILLIAM SQUARE E", "address": "Fitzwilliam Square East", "lat": 53.335211, "long": -6.2509}, {"number": 57, "name": "GRATTAN STREET", "address": "Grattan Street", "lat": 53.339629, "long": -6.243778}, {"number": 80, "name": "ST JAMES HOSPITAL (L", "address": "St James Hospital (Luas)", "lat": 53.341359, "long": -6.292951}, {"number": 41, "name": "HARCOURT TERRACE", "address": "Harcourt Terrace", "lat": 53.332763, "long": -6.257942}, {"number": 3, "name": "BOLTON STREET", "address": "Bolton Street", "lat": 53.351182, "long": -6.269859}, {"number": 46, "name": "STRAND STREET GREAT", "address": "Strand Street Great", "lat": 53.347082, "long": -6.264192}, {"number": 40, "name": "JERVIS STREET", "address": "Jervis Street", "lat": 53.3483, "long": -6.266651}, {"number": 29, "name": "ORMOND QUAY UPPER", "address": "Ormond Quay Upper", "lat": 53.346057, "long": -6.268001}, {"number": 70, "name": "BARROW STREET", "address": "Barrow Street", "lat": 53.341655, "long": -6.236198}, {"number": 28, "name": "MOUNTJOY SQUARE WEST", "address": "Mountjoy Square West", "lat": 53.356299, "long": -6.258586}, {"number": 39, "name": "WILTON TERRACE", "address": "Wilton Terrace", "lat": 53.332383, "long": -6.252717}, {"number": 83, "name": "EMMET ROAD", "address": "Emmet Road", "lat": 53.340714, "long": -6.308191}, {"number": 92, "name": "HEUSTON BRIDGE (NORT", "address": "Heuston Bridge (North)", "lat": 53.347802, "long": -6.292432}, {"number": 21, "name": "LEINSTER STREET SOUT", "address": "Leinster Street South", "lat": 53.34218, "long": -6.254485}, {"number": 88, "name": "BLACKHALL PLACE", "address": "Blackhall Place", "lat": 53.3488, "long": -6.281637}]